[
  {
    "name": "富山市ガラス美術館",
    "lat": 36.6884159,
    "lng": 137.2151858
  },
  {
    "name": "瑞龍寺",
    "lat": 36.7355955,
    "lng": 137.0105088
  },
  {
    "name": "富岩運河環水公園",
    "lat": 36.7093769,
    "lng": 137.2124329
  },
  {
    "name": "越中五箇山相倉集落",
    "lat": 36.4260061,
    "lng": 136.9354778
  },
  {
    "name": "富山県美術館",
    "lat": 36.7105539,
    "lng": 137.2101156
  },
  {
    "name": "高岡大仏",
    "lat": 36.7455815,
    "lng": 137.0171127
  },
  {
    "name": "砺波チューリップ公園",
    "lat": 36.6401861,
    "lng": 136.9620366
  },
  {
    "name": "黒部峡谷トロッコ列車",
    "lat": 36.8150304,
    "lng": 137.58601
  },
  {
    "name": "雨晴海岸",
    "lat": 36.8148693,
    "lng": 137.0420588
  },
  {
    "name": "富山城",
    "lat": 36.6927004,
    "lng": 137.2116148
  },
  {
    "name": "富山市役所展望塔",
    "lat": 36.6958451,
    "lng": 137.2136132
  },
  {
    "name": "富山市ファミリーパーク",
    "lat": 36.69231389999999,
    "lng": 137.1490191
  },
  {
    "name": "氷見漁港場外市場ひみ番屋街",
    "lat": 36.8643686,
    "lng": 136.987247
  },
  {
    "name": "魚津水族館",
    "lat": 36.7983556,
    "lng": 137.3881941
  },
  {
    "name": "氷見市潮風ギャラリー藤子不二雄Aアートコレクション",
    "lat": 36.8591453,
    "lng": 136.987241
  },
  {
    "name": "海王丸パーク",
    "lat": 36.7802202,
    "lng": 137.1102672
  },
  {
    "name": "ほたるいかミュージアム",
    "lat": 36.7740842,
    "lng": 137.3444938
  },
  {
    "name": "ますのすし本舗源ますのすしミュージアム",
    "lat": 36.6277274,
    "lng": 137.2045773
  },
  {
    "name": "新湊大橋",
    "lat": 36.7758521,
    "lng": 137.1154247
  },
  {
    "name": "（株）池田屋安兵衛商店健康膳薬都",
    "lat": 36.68852,
    "lng": 137.21766
  },
  {
    "name": "富山ガラス工房",
    "lat": 36.695282,
    "lng": 137.1463549
  },
  {
    "name": "きときと市場とやマルシェGOSHU",
    "lat": 36.7010484,
    "lng": 137.2138963
  },
  {
    "name": "北前船回船問屋森家",
    "lat": 36.7568347,
    "lng": 137.2286172
  },
  {
    "name": "チューリップ四季彩館",
    "lat": 36.6411228,
    "lng": 136.9650367
  },
  {
    "name": "井波別院瑞泉寺",
    "lat": 36.55877,
    "lng": 136.9720435
  },
  {
    "name": "富山日枝神社",
    "lat": 36.6866278,
    "lng": 137.2137955
  },
  {
    "name": "富山市科学博物館",
    "lat": 36.6808542,
    "lng": 137.2118146
  },
  {
    "name": "富山縣護國神社",
    "lat": 36.6897799,
    "lng": 137.20178
  },
  {
    "name": "菅沼合掌造り集落（南砺市菅沼重要伝統的建造物群保存地区）",
    "lat": 36.4041682,
    "lng": 136.8864489
  },
  {
    "name": "満天の湯富山店",
    "lat": 36.687145,
    "lng": 137.233372
  },
  {
    "name": "おとぎの森館",
    "lat": 36.72510949999999,
    "lng": 137.0001647
  },
  {
    "name": "散居村展望台",
    "lat": 36.5870068,
    "lng": 137.0130103
  },
  {
    "name": "富山県中央植物園",
    "lat": 36.6624757,
    "lng": 137.1811789
  },
  {
    "name": "秋水美術館",
    "lat": 36.6873764,
    "lng": 137.2116939
  },
  {
    "name": "金太郎温泉日帰り温泉カルナの館",
    "lat": 36.8395127,
    "lng": 137.4366782
  },
  {
    "name": "諏訪町本通り",
    "lat": 36.575691,
    "lng": 137.1333878
  },
  {
    "name": "富山県立山カルデラ砂防博物館",
    "lat": 36.5822308,
    "lng": 137.4458923
  },
  {
    "name": "富山市郷土博物館",
    "lat": 36.6928096,
    "lng": 137.2114892
  },
  {
    "name": "富山港展望台",
    "lat": 36.7581335,
    "lng": 137.2275515
  },
  {
    "name": "高岡古城公園動物園",
    "lat": 36.7478285,
    "lng": 137.0225208
  },
  {
    "name": "立山",
    "lat": 36.575833,
    "lng": 137.619722
  },
  {
    "name": "富山市民俗民芸村民俗資料館",
    "lat": 36.7087107,
    "lng": 137.188915
  },
  {
    "name": "富山市佐藤記念美術館",
    "lat": 36.6939103,
    "lng": 137.212024
  },
  {
    "name": "高岡おとぎの森公園",
    "lat": 36.7249144,
    "lng": 137.0000307
  },
  {
    "name": "高岡市万葉歴史館",
    "lat": 36.7955856,
    "lng": 137.0460921
  },
  {
    "name": "ミラージュランド",
    "lat": 36.8002405,
    "lng": 137.3863272
  },
  {
    "name": "庄川峡",
    "lat": 36.5627383,
    "lng": 137.0049525
  },
  {
    "name": "宇奈月駅",
    "lat": 36.8150247,
    "lng": 137.5859364
  },
  {
    "name": "あさひ舟川「春の四重奏」",
    "lat": 36.9402357,
    "lng": 137.5380884
  },
  {
    "name": "県民公園太閤山ランド",
    "lat": 36.691384,
    "lng": 137.10559
  },
  {
    "name": "岩瀬の古い町並み",
    "lat": 36.7564517,
    "lng": 137.2288345
  },
  {
    "name": "富山県水墨美術館",
    "lat": 36.6991162,
    "lng": 137.1965483
  },
  {
    "name": "（有）営農ワイエムアイ",
    "lat": 36.6201739,
    "lng": 137.2937109
  },
  {
    "name": "桂樹舎・和紙文庫",
    "lat": 36.5787098,
    "lng": 137.1314094
  },
  {
    "name": "海の駅蜃気楼",
    "lat": 36.8248617,
    "lng": 137.3940238
  },
  {
    "name": "日石寺",
    "lat": 36.6622248,
    "lng": 137.391158
  },
  {
    "name": "勝興寺",
    "lat": 36.7925962,
    "lng": 137.052356
  },
  {
    "name": "八重津浜海水浴場",
    "lat": 36.7586703,
    "lng": 137.2038799
  },
  {
    "name": "高志の国文学館",
    "lat": 36.6954577,
    "lng": 137.2061956
  },
  {
    "name": "魚津埋没林博物館",
    "lat": 36.8224611,
    "lng": 137.39501
  },
  {
    "name": "射水市大島絵本館",
    "lat": 36.734233,
    "lng": 137.073983
  },
  {
    "name": "閑乗寺公園",
    "lat": 36.559845,
    "lng": 136.9869335
  },
  {
    "name": "富山県立イタイイタイ病資料館",
    "lat": 36.6361829,
    "lng": 137.201888
  },
  {
    "name": "氷見あいやまガーデン",
    "lat": 36.8889044,
    "lng": 136.9644292
  },
  {
    "name": "牛岳温泉スキー場",
    "lat": 36.572464,
    "lng": 137.0564564
  },
  {
    "name": "梅かまミュージアムU-mei館",
    "lat": 36.7312059,
    "lng": 137.2909027
  },
  {
    "name": "ミュゼふくおかカメラ館",
    "lat": 36.7114533,
    "lng": 136.9296454
  },
  {
    "name": "呉羽山公園",
    "lat": 36.7088526,
    "lng": 137.1852969
  },
  {
    "name": "高岡御車山会館",
    "lat": 36.7466587,
    "lng": 137.0098376
  },
  {
    "name": "氷見市海浜植物園シーサイドパーク",
    "lat": 36.8372508,
    "lng": 137.0045011
  },
  {
    "name": "高岡城跡",
    "lat": 36.7493267,
    "lng": 137.0207843
  },
  {
    "name": "まんがロード",
    "lat": 36.8597231,
    "lng": 136.9865717
  },
  {
    "name": "黒部川電気記念館",
    "lat": 36.8148665,
    "lng": 137.5857369
  },
  {
    "name": "山町筋重要伝統的建造物群保存地区",
    "lat": 36.7474728,
    "lng": 137.0114207
  },
  {
    "name": "高岡市美術館",
    "lat": 36.7512183,
    "lng": 137.026517
  },
  {
    "name": "富山二上山",
    "lat": 36.7899718,
    "lng": 137.0153548
  }
]