[
  {
    "name": "富山市ガラス美術館",
    "lat": 36.6884159,
    "lng": 137.2151858,
    "rev_val": 4.2,
    "rev_num": 6126,
    "req_time": 90,
    "view_pt": [
      1,
      2,
      3,
      2,
      2
    ]
  },
  {
    "name": "瑞龍寺",
    "lat": 36.7355955,
    "lng": 137.0105088,
    "rev_val": 4.4,
    "rev_num": 3421,
    "req_time": 60,
    "view_pt": [
      2,
      3,
      2,
      1,
      2
    ]
  },
  {
    "name": "富岩運河環水公園",
    "lat": 36.7093769,
    "lng": 137.2124329,
    "rev_val": 4.4,
    "rev_num": 7775,
    "req_time": 90,
    "view_pt": [
      3,
      2,
      2,
      1,
      2
    ]
  },
  {
    "name": "越中五箇山相倉集落",
    "lat": 36.4260061,
    "lng": 136.9354778,
    "rev_val": 4.3,
    "rev_num": 3395,
    "req_time": 90,
    "view_pt": [
      3,
      3,
      3,
      2,
      3
    ]
  },
  {
    "name": "富山県美術館",
    "lat": 36.7105539,
    "lng": 137.2101156,
    "rev_val": 4.2,
    "rev_num": 3015,
    "req_time": 90,
    "view_pt": [
      3,
      2,
      3,
      3,
      3
    ]
  },
  {
    "name": "高岡大仏",
    "lat": 36.7455815,
    "lng": 137.0171127,
    "rev_val": 4.1,
    "rev_num": 727,
    "req_time": 60,
    "view_pt": [
      2,
      3,
      3,
      1,
      1
    ]
  },
  {
    "name": "砺波チューリップ公園",
    "lat": 36.6401861,
    "lng": 136.9620366,
    "rev_val": 4.2,
    "rev_num": 3108,
    "req_time": 150,
    "view_pt": [
      3,
      1,
      2,
      2,
      3
    ]
  },
  {
    "name": "黒部峡谷トロッコ列車",
    "lat": 36.8150304,
    "lng": 137.58601,
    "rev_val": 4.5,
    "rev_num": 2205,
    "req_time": 240,
    "view_pt": [
      3,
      3,
      1,
      2,
      3
    ]
  },
  {
    "name": "雨晴海岸",
    "lat": 36.8148693,
    "lng": 137.0420588,
    "rev_val": 4.4,
    "rev_num": 2036,
    "req_time": 60,
    "view_pt": [
      3,
      1,
      2,
      2,
      3
    ]
  },
  {
    "name": "富山城",
    "lat": 36.6927004,
    "lng": 137.2116148,
    "rev_val": 3.9,
    "rev_num": 611,
    "req_time": 45,
    "view_pt": [
      3,
      3,
      3,
      2,
      2
    ]
  },
  {
    "name": "富山市役所展望塔",
    "lat": 36.6958451,
    "lng": 137.2136132,
    "rev_val": 4.3,
    "rev_num": 773,
    "req_time": 30,
    "view_pt": [
      3,
      1,
      1,
      1,
      2
    ]
  },
  {
    "name": "富山市ファミリーパーク",
    "lat": 36.69231389999999,
    "lng": 137.1490191,
    "rev_val": 4.2,
    "rev_num": 1401,
    "req_time": 180,
    "view_pt": [
      3,
      1,
      1,
      2,
      3
    ]
  },
  {
    "name": "氷見漁港場外市場ひみ番屋街",
    "lat": 36.8643686,
    "lng": 136.987247,
    "rev_val": 3.9,
    "rev_num": 6959,
    "req_time": 90,
    "view_pt": [
      2,
      1,
      1,
      3,
      3
    ]
  },
  {
    "name": "魚津水族館",
    "lat": 36.7983556,
    "lng": 137.3881941,
    "rev_val": 4.1,
    "rev_num": 1977,
    "req_time": 90,
    "view_pt": [
      3,
      1,
      2,
      1,
      3
    ]
  },
  {
    "name": "氷見市潮風ギャラリー藤子不二雄Aアートコレクション",
    "lat": 36.8591453,
    "lng": 136.987241,
    "rev_val": 4.0,
    "rev_num": 652,
    "req_time": 30,
    "view_pt": [
      2,
      1,
      3,
      2,
      2
    ]
  },
  {
    "name": "海王丸パーク",
    "lat": 36.7802202,
    "lng": 137.1102672,
    "rev_val": 4.4,
    "rev_num": 65,
    "req_time": 60,
    "view_pt": [
      3,
      2,
      2,
      2,
      3
    ]
  },
  {
    "name": "ほたるいかミュージアム",
    "lat": 36.7740842,
    "lng": 137.3444938,
    "rev_val": 3.7,
    "rev_num": 2639,
    "req_time": 60,
    "view_pt": [
      3,
      2,
      1,
      2,
      3
    ]
  },
  {
    "name": "ますのすし本舗源ますのすしミュージアム",
    "lat": 36.6277274,
    "lng": 137.2045773,
    "rev_val": 3.8,
    "rev_num": 1554,
    "req_time": 180,
    "view_pt": [
      1,
      1,
      3,
      3,
      3
    ]
  },
  {
    "name": "新湊大橋",
    "lat": 36.7758521,
    "lng": 137.1154247,
    "rev_val": 4.4,
    "rev_num": 386,
    "req_time": 60,
    "view_pt": [
      3,
      1,
      2,
      1,
      3
    ]
  },
  {
    "name": "（株）池田屋安兵衛商店健康膳薬都",
    "lat": 36.68852,
    "lng": 137.21766,
    "rev_val": 4.2,
    "rev_num": 100,
    "req_time": 20,
    "view_pt": [
      1,
      3,
      2,
      3,
      2
    ]
  },
  {
    "name": "富山ガラス工房",
    "lat": 36.695282,
    "lng": 137.1463549,
    "rev_val": 4.1,
    "rev_num": 342,
    "req_time": 30,
    "view_pt": [
      1,
      1,
      3,
      3,
      2
    ]
  },
  {
    "name": "きときと市場とやマルシェGOSHU",
    "lat": 36.7010484,
    "lng": 137.2138963,
    "rev_val": 4.1,
    "rev_num": 17,
    "req_time": 20,
    "view_pt": [
      1,
      1,
      1,
      3,
      1
    ]
  },
  {
    "name": "北前船回船問屋森家",
    "lat": 36.7568347,
    "lng": 137.2286172,
    "rev_val": 3.9,
    "rev_num": 520,
    "req_time": 30,
    "view_pt": [
      2,
      3,
      2,
      1,
      2
    ]
  },
  {
    "name": "チューリップ四季彩館",
    "lat": 36.6411228,
    "lng": 136.9650367,
    "rev_val": 4.2,
    "rev_num": 325,
    "req_time": 60,
    "view_pt": [
      3,
      1,
      2,
      2,
      3
    ]
  },
  {
    "name": "井波別院瑞泉寺",
    "lat": 36.55877,
    "lng": 136.9720435,
    "rev_val": 4.3,
    "rev_num": 724,
    "req_time": 30,
    "view_pt": [
      3,
      3,
      3,
      1,
      2
    ]
  },
  {
    "name": "富山日枝神社",
    "lat": 36.6866278,
    "lng": 137.2137955,
    "rev_val": 4.1,
    "rev_num": 1001,
    "req_time": 20,
    "view_pt": [
      2,
      3,
      2,
      1,
      2
    ]
  },
  {
    "name": "富山市科学博物館",
    "lat": 36.6808542,
    "lng": 137.2118146,
    "rev_val": 4.2,
    "rev_num": 791,
    "req_time": 60,
    "view_pt": [
      1,
      2,
      3,
      2,
      2
    ]
  },
  {
    "name": "富山縣護國神社",
    "lat": 36.6897799,
    "lng": 137.20178,
    "rev_val": 4.3,
    "rev_num": 838,
    "req_time": 30,
    "view_pt": [
      3,
      3,
      1,
      1,
      2
    ]
  },
  {
    "name": "菅沼合掌造り集落（南砺市菅沼重要伝統的建造物群保存地区）",
    "lat": 36.4041682,
    "lng": 136.8864489,
    "rev_val": 4.2,
    "rev_num": 3472,
    "req_time": 45,
    "view_pt": [
      3,
      3,
      3,
      2,
      3
    ]
  },
  {
    "name": "満天の湯富山店",
    "lat": 36.687145,
    "lng": 137.233372,
    "rev_val": 4.1,
    "rev_num": 1842,
    "req_time": 60,
    "view_pt": [
      1,
      1,
      1,
      2,
      3
    ]
  },
  {
    "name": "おとぎの森館",
    "lat": 36.72510949999999,
    "lng": 137.0001647,
    "rev_val": 4.2,
    "rev_num": 74,
    "req_time": 60,
    "view_pt": [
      3,
      1,
      2,
      1,
      3
    ]
  },
  {
    "name": "散居村展望台",
    "lat": 36.5870068,
    "lng": 137.0130103,
    "rev_val": 4.1,
    "rev_num": 309,
    "req_time": 15,
    "view_pt": [
      3,
      1,
      1,
      1,
      2
    ]
  },
  {
    "name": "富山県中央植物園",
    "lat": 36.6624757,
    "lng": 137.1811789,
    "rev_val": 4.2,
    "rev_num": 477,
    "req_time": 60,
    "view_pt": [
      3,
      1,
      2,
      2,
      3
    ]
  },
  {
    "name": "秋水美術館",
    "lat": 36.6873764,
    "lng": 137.2116939,
    "rev_val": 4.2,
    "rev_num": 262,
    "req_time": 45,
    "view_pt": [
      1,
      3,
      3,
      2,
      2
    ]
  },
  {
    "name": "金太郎温泉日帰り温泉カルナの館",
    "lat": 36.8395127,
    "lng": 137.4366782,
    "rev_val": 4.1,
    "rev_num": 648,
    "req_time": 60,
    "view_pt": [
      2,
      1,
      1,
      3,
      3
    ]
  },
  {
    "name": "諏訪町本通り",
    "lat": 36.575691,
    "lng": 137.1333878,
    "rev_val": 4.2,
    "rev_num": 267,
    "req_time": 20,
    "view_pt": [
      2,
      2,
      1,
      1,
      1
    ]
  },
  {
    "name": "富山県立山カルデラ砂防博物館",
    "lat": 36.5822308,
    "lng": 137.4458923,
    "rev_val": 4.3,
    "rev_num": 398,
    "req_time": 90,
    "view_pt": [
      3,
      3,
      3,
      1,
      3
    ]
  },
  {
    "name": "富山市郷土博物館",
    "lat": 36.6928096,
    "lng": 137.2114892,
    "rev_val": 3.8,
    "rev_num": 1614,
    "req_time": 30,
    "view_pt": [
      3,
      3,
      3,
      2,
      2
    ]
  },
  {
    "name": "富山港展望台",
    "lat": 36.7581335,
    "lng": 137.2275515,
    "rev_val": 3.7,
    "rev_num": 722,
    "req_time": 15,
    "view_pt": [
      3,
      1,
      1,
      1,
      2
    ]
  },
  {
    "name": "高岡古城公園動物園",
    "lat": 36.7478285,
    "lng": 137.0225208,
    "rev_val": 4.2,
    "rev_num": 284,
    "req_time": 30,
    "view_pt": [
      2,
      1,
      1,
      1,
      2
    ]
  },
  {
    "name": "立山",
    "lat": 36.575833,
    "lng": 137.619722,
    "rev_val": 4.8,
    "rev_num": 504,
    "req_time": 15,
    "view_pt": [
      3,
      1,
      1,
      2,
      2
    ]
  },
  {
    "name": "富山市民俗民芸村民俗資料館",
    "lat": 36.7087107,
    "lng": 137.188915,
    "rev_val": 4.0,
    "rev_num": 94,
    "req_time": 80,
    "view_pt": [
      2,
      3,
      2,
      1,
      2
    ]
  },
  {
    "name": "富山市佐藤記念美術館",
    "lat": 36.6939103,
    "lng": 137.212024,
    "rev_val": 3.9,
    "rev_num": 71,
    "req_time": 30,
    "view_pt": [
      3,
      3,
      3,
      2,
      2
    ]
  },
  {
    "name": "高岡おとぎの森公園",
    "lat": 36.7249144,
    "lng": 137.0000307,
    "rev_val": 4.2,
    "rev_num": 1862,
    "req_time": 60,
    "view_pt": [
      3,
      1,
      1,
      1,
      3
    ]
  },
  {
    "name": "高岡市万葉歴史館",
    "lat": 36.7955856,
    "lng": 137.0460921,
    "rev_val": 4.0,
    "rev_num": 263,
    "req_time": 90,
    "view_pt": [
      2,
      3,
      3,
      2,
      3
    ]
  },
  {
    "name": "ミラージュランド",
    "lat": 36.8002405,
    "lng": 137.3863272,
    "rev_val": 3.9,
    "rev_num": 876,
    "req_time": 90,
    "view_pt": [
      2,
      1,
      1,
      2,
      2
    ]
  },
  {
    "name": "庄川峡",
    "lat": 36.5627383,
    "lng": 137.0049525,
    "rev_val": 4.3,
    "rev_num": 60,
    "req_time": 40,
    "view_pt": [
      3,
      1,
      1,
      2,
      3
    ]
  },
  {
    "name": "宇奈月駅",
    "lat": 36.8150247,
    "lng": 137.5859364,
    "rev_val": 4.3,
    "rev_num": 344,
    "req_time": 30,
    "view_pt": [
      3,
      1,
      1,
      3,
      3
    ]
  },
  {
    "name": "あさひ舟川「春の四重奏」",
    "lat": 36.9402357,
    "lng": 137.5380884,
    "rev_val": 4.3,
    "rev_num": 248,
    "req_time": 40,
    "view_pt": [
      3,
      1,
      1,
      2,
      3
    ]
  },
  {
    "name": "県民公園太閤山ランド",
    "lat": 36.691384,
    "lng": 137.10559,
    "rev_val": 4.1,
    "rev_num": 637,
    "req_time": 90,
    "view_pt": [
      3,
      1,
      2,
      1,
      3
    ]
  },
  {
    "name": "岩瀬の古い町並み",
    "lat": 36.7564517,
    "lng": 137.2288345,
    "rev_val": 4.2,
    "rev_num": 18,
    "req_time": 120,
    "view_pt": [
      2,
      3,
      3,
      3,
      2
    ]
  },
  {
    "name": "庄川温泉郷",
    "lat": 36.574293,
    "lng": 136.9798444,
    "rev_val": 4.1,
    "rev_num": 25,
    "req_time": 60,
    "view_pt": [
      3,
      1,
      1,
      2,
      3
    ]
  },
  {
    "name": "富山県水墨美術館",
    "lat": 36.6991162,
    "lng": 137.1965483,
    "rev_val": 4.1,
    "rev_num": 750,
    "req_time": 60,
    "view_pt": [
      1,
      3,
      3,
      2,
      2
    ]
  },
  {
    "name": "（有）営農ワイエムアイ",
    "lat": 36.6201739,
    "lng": 137.2937109,
    "rev_val": 3.9,
    "rev_num": 18,
    "req_time": 30,
    "view_pt": [
      1,
      1,
      1,
      3,
      2
    ]
  },
  {
    "name": "桂樹舎・和紙文庫",
    "lat": 36.5787098,
    "lng": 137.1314094,
    "rev_val": 4.1,
    "rev_num": 93,
    "req_time": 30,
    "view_pt": [
      1,
      2,
      2,
      3,
      2
    ]
  },
  {
    "name": "海の駅蜃気楼",
    "lat": 36.8248617,
    "lng": 137.3940238,
    "rev_val": 3.7,
    "rev_num": 1653,
    "req_time": 60,
    "view_pt": [
      3,
      1,
      1,
      3,
      3
    ]
  },
  {
    "name": "日石寺",
    "lat": 36.6622248,
    "lng": 137.391158,
    "rev_val": 4.3,
    "rev_num": 1023,
    "req_time": 60,
    "view_pt": [
      3,
      3,
      3,
      2,
      2
    ]
  },
  {
    "name": "勝興寺",
    "lat": 36.7925962,
    "lng": 137.052356,
    "rev_val": 4.2,
    "rev_num": 661,
    "req_time": 60,
    "view_pt": [
      3,
      3,
      3,
      2,
      3
    ]
  },
  {
    "name": "八重津浜海水浴場",
    "lat": 36.7586703,
    "lng": 137.2038799,
    "rev_val": 3.9,
    "rev_num": 318,
    "req_time": 90,
    "view_pt": [
      3,
      1,
      1,
      1,
      3
    ]
  },
  {
    "name": "高志の国文学館",
    "lat": 36.6954577,
    "lng": 137.2061956,
    "rev_val": 4.1,
    "rev_num": 355,
    "req_time": 60,
    "view_pt": [
      2,
      3,
      3,
      2,
      3
    ]
  },
  {
    "name": "魚津埋没林博物館",
    "lat": 36.8224611,
    "lng": 137.39501,
    "rev_val": 3.9,
    "rev_num": 1013,
    "req_time": 60,
    "view_pt": [
      3,
      2,
      1,
      2,
      3
    ]
  },
  {
    "name": "射水市大島絵本館",
    "lat": 36.734233,
    "lng": 137.073983,
    "rev_val": 4.1,
    "rev_num": 196,
    "req_time": 60,
    "view_pt": [
      1,
      1,
      3,
      2,
      3
    ]
  },
  {
    "name": "閑乗寺公園",
    "lat": 36.559845,
    "lng": 136.9869335,
    "rev_val": 4.3,
    "rev_num": 379,
    "req_time": 30,
    "view_pt": [
      3,
      1,
      1,
      3,
      3
    ]
  },
  {
    "name": "富山県立イタイイタイ病資料館",
    "lat": 36.6361829,
    "lng": 137.201888,
    "rev_val": 4.3,
    "rev_num": 170,
    "req_time": 60,
    "view_pt": [
      1,
      3,
      2,
      1,
      1
    ]
  },
  {
    "name": "氷見あいやまガーデン",
    "lat": 36.8889044,
    "lng": 136.9644292,
    "rev_val": 3.9,
    "rev_num": 182,
    "req_time": 120,
    "view_pt": [
      3,
      1,
      2,
      2,
      3
    ]
  },
  {
    "name": "牛岳温泉スキー場",
    "lat": 36.572464,
    "lng": 137.0564564,
    "rev_val": 4.1,
    "rev_num": 249,
    "req_time": 120,
    "view_pt": [
      3,
      1,
      1,
      2,
      3
    ]
  },
  {
    "name": "梅かまミュージアムU-mei館",
    "lat": 36.7312059,
    "lng": 137.2909027,
    "rev_val": 3.5,
    "rev_num": 40,
    "req_time": 60,
    "view_pt": [
      1,
      2,
      3,
      3,
      2
    ]
  },
  {
    "name": "ミュゼふくおかカメラ館",
    "lat": 36.7114533,
    "lng": 136.9296454,
    "rev_val": 4.1,
    "rev_num": 317,
    "req_time": 60,
    "view_pt": [
      1,
      2,
      3,
      2,
      2
    ]
  },
  {
    "name": "呉羽山公園",
    "lat": 36.7088526,
    "lng": 137.1852969,
    "rev_val": 4.1,
    "rev_num": 34,
    "req_time": 30,
    "view_pt": [
      3,
      1,
      2,
      1,
      3
    ]
  },
  {
    "name": "庄川温泉郷",
    "lat": 36.574293,
    "lng": 136.9798444,
    "rev_val": 4.1,
    "rev_num": 282,
    "req_time": 30,
    "view_pt": [
      3,
      1,
      1,
      2,
      2
    ]
  },
  {
    "name": "高岡御車山会館",
    "lat": 36.7466587,
    "lng": 137.0098376,
    "rev_val": 4.0,
    "rev_num": 334,
    "req_time": 60,
    "view_pt": [
      2,
      3,
      3,
      2,
      2
    ]
  },
  {
    "name": "氷見市海浜植物園シーサイドパーク",
    "lat": 36.8372508,
    "lng": 137.0045011,
    "rev_val": 3.8,
    "rev_num": 569,
    "req_time": 90,
    "view_pt": [
      3,
      1,
      2,
      2,
      3
    ]
  },
  {
    "name": "高岡城跡",
    "lat": 36.7493267,
    "lng": 137.0207843,
    "rev_val": 3.9,
    "rev_num": 565,
    "req_time": 30,
    "view_pt": [
      2,
      3,
      2,
      1,
      2
    ]
  },
  {
    "name": "まんがロード",
    "lat": 36.8597231,
    "lng": 136.9865717,
    "rev_val": 3.8,
    "rev_num": 267,
    "req_time": 90,
    "view_pt": [
      2,
      1,
      3,
      1,
      2
    ]
  },
  {
    "name": "黒部川電気記念館",
    "lat": 36.8148665,
    "lng": 137.5857369,
    "rev_val": 3.8,
    "rev_num": 124,
    "req_time": 30,
    "view_pt": [
      2,
      2,
      2,
      1,
      1
    ]
  },
  {
    "name": "山町筋重要伝統的建造物群保存地区",
    "lat": 36.7474728,
    "lng": 137.0114207,
    "rev_val": 3.9,
    "rev_num": 160,
    "req_time": 60,
    "view_pt": [
      3,
      3,
      2,
      1,
      2
    ]
  },
  {
    "name": "高岡市美術館",
    "lat": 36.7512183,
    "lng": 137.026517,
    "rev_val": 3.9,
    "rev_num": 763,
    "req_time": 60,
    "view_pt": [
      2,
      3,
      3,
      2,
      2
    ]
  },
  {
    "name": "富山二上山",
    "lat": 36.7899718,
    "lng": 137.0153548,
    "rev_val": 4.0,
    "rev_num": 41,
    "req_time": 45,
    "view_pt": [
      3,
      3,
      2,
      1,
      2
    ]
  }
]